[
  {
    "name": "FairPrice Ang Mo Kio Ave 10",
    "address": "453 Ang Mo Kio Ave 10, Singapore 560453",
    "hours": "24 Hours",
    "latitude": 1.36858206013781,
    "longitude": 103.855983050439
  },
  {
    "name": "FairPrice Ang Mo Kio Blk 215",
    "address": "215 Ang Mo Kio Ave 1, #01-877, Singapore 560215",
    "hours": "24 Hours",
    "latitude": 1.36655830166122,
    "longitude": 103.841624082978
  },
  {
    "name": "FairPrice Ang Mo Kio Blk 712",
    "address": "712 Ang Mo Kio Ave 6, #01-4056, Singapore 560712",
    "hours": "24 Hours",
    "latitude": 1.3714109677026,
    "longitude": 103.847084468485
  },
  {
    "name": "FairPrice AMK Hub",
    "address": "53 Ang Mo Kio Ave 3, #B1-01, AMK Hub, Singapore 569933",
    "hours": "8am-11pm",
    "latitude": 1.36923561405404,
    "longitude": 103.848693181185
  },
  {
    "name": "FairPrice Ang Mo Kio Blk 226",
    "address": "226 Ang Mo Kio Ave 1, #01-1651, Singapore 560226",
    "hours": "7am-11pm",
    "latitude": 1.36772803186644,
    "longitude": 103.838404951621
  },
  {
    "name": "FairPrice Ang Mo Kio Blk 406",
    "address": "406 Ang Mo Kio Ave 10, #01-1829, Singapore 560406",
    "hours": "7am-11pm",
    "latitude": 1.36200453938712,
    "longitude": 103.853879910407
  },
  {
    "name": "FairPrice Ang Mo Kio Blk 628",
    "address": "628 Ang Mo Kio Ave 4, #01-900, Singapore 560628",
    "hours": "24 Hours",
    "latitude": 1.38098761665454,
    "longitude": 103.840628087484
  },
  {
    "name": "FairPrice Bedok North",
    "address": "212 Bedok North Street 1, #01-147, Singapore 460212",
    "hours": "24 Hours",
    "latitude": 1.32594069200441,
    "longitude": 103.931640022396
  },
  {
    "name": "FairPrice Bedok North Blk 89",
    "address": "89 Bedok North Street 4, #01-77/79, Singapore 460089",
    "hours": "24 Hours",
    "latitude": 1.33233468349262,
    "longitude": 103.938051284737
  },
  {
    "name": "FairPrice Bedok Reservoir Road",
    "address": "745 Bedok Reservoir Road, #01-3015, Singapore 470745",
    "hours": "24 Hours",
    "latitude": 1.33737622539858,
    "longitude": 103.921741211998
  },
  {
    "name": "FairPrice Bedok Mall",
    "address": "311 New Upper Changi Road, #B1-01, Bedok Mall, Singapore 467360",
    "hours": "8am-11pm",
    "latitude": 1.32473632812103,
    "longitude": 103.929256259726
  },
  {
    "name": "FairPrice Bedok Blk 538",
    "address": "538 Bedok North Street 3, #01-195, Singapore 460538",
    "hours": "7am-11pm",
    "latitude": 1.3320672771228,
    "longitude": 103.924621314971
  },
  {
    "name": "FairPrice Bedok Blk 85",
    "address": "85 Bedok North Avenue 4, #01-09, Singapore 460085",
    "hours": "24 Hours",
    "latitude": 1.33200482399436,
    "longitude": 103.93876843919
  },
  {
    "name": "FairPrice Bedok South",
    "address": "18 Bedok South Road, #01-58, Singapore 460018",
    "hours": "7am-11pm",
    "latitude": 1.32062504871279,
    "longitude": 103.934734222428
  },
  {
    "name": "FairPrice Bishan Blk 510",
    "address": "510 Bishan Street 13, #01-520, Singapore 570510",
    "hours": "7am-11pm",
    "latitude": 1.34888843900173,
    "longitude": 103.849691980373
  },
  {
    "name": "FairPrice Bishan North Blk 279",
    "address": "279 Bishan Street 24, #01-62/64, Singapore 570279",
    "hours": "24 Hours",
    "latitude": 1.35722283118337,
    "longitude": 103.843785252615
  },
  {
    "name": "FairPrice Junction 8",
    "address": "9 Bishan Place, #B1-01, Junction 8, Singapore 579837",
    "hours": "8am-11pm",
    "latitude": 1.35042215656701,
    "longitude": 103.848826189269
  },
  {
    "name": "FairPrice Bishan Blk 230",
    "address": "230 Bishan Street 23, #01-84, Singapore 570230",
    "hours": "7am-11pm",
    "latitude": 1.35794579979948,
    "longitude": 103.845493593377
  },
  {
    "name": "FairPrice Boon Lay Shopping Complex",
    "address": "221 Boon Lay Place, #02-200, Boon Lay Shopping Complex, Singapore 640221",
    "hours": "24 Hours",
    "latitude": 1.34633552457315,
    "longitude": 103.712430373455
  },
  {
    "name": "FairPrice Boon Lay Blk 190",
    "address": "190 Boon Lay Drive, #01-306, Singapore 640190",
    "hours": "7am-11pm",
    "latitude": 1.34507676207703,
    "longitude": 103.711850425927
  },
  {
    "name": "FairPrice Bukit Batok East",
    "address": "280 Bukit Batok East Ave 3, #01-315, Singapore 650280",
    "hours": "24 Hours",
    "latitude": 1.34770147739311,
    "longitude": 103.757044584552
  },
  {
    "name": "FairPrice Bukit Batok MRT",
    "address": "10 Bukit Batok Central, #01-08, Singapore 659958",
    "hours": "7am-11:30pm",
    "latitude": 1.34903331201636,
    "longitude": 103.749566478309
  },
  {
    "name": "FairPrice Bukit Batok West",
    "address": "166 Bukit Batok West Ave 8, #01-256/258, Singapore 650166",
    "hours": "24 Hours",
    "latitude": 1.34715255032968,
    "longitude": 103.742824825591
  },
  {
    "name": "FairPrice West Mall",
    "address": "1 Bukit Batok Central Link, #B1-01, West Mall, Singapore 658713",
    "hours": "8am-11pm",
    "latitude": 1.34992152880216,
    "longitude": 103.749171990184
  },
  {
    "name": "FairPrice Bukit Ho Swee",
    "address": "50 Havelock Road, #01-755, Singapore 160050",
    "hours": "24 Hours",
    "latitude": 1.28977813992267,
    "longitude": 103.826793758887
  },
  {
    "name": "FairPrice Bukit Merah Central",
    "address": "166 Bukit Merah Central, #01-3531 & #02-3531, Singapore 150166",
    "hours": "7am-11pm",
    "latitude": 1.28309262574973,
    "longitude": 103.817667202598
  },
  {
    "name": "FairPrice Depot",
    "address": "108 Depot Road, #01-01, Depot Heights Shopping Centre, Singapore 100108",
    "hours": "8am-11pm",
    "latitude": 1.28084469467756,
    "longitude": 103.810292618353
  },
  {
    "name": "FairPrice Bukit Merah View",
    "address": "2 Bukit Merah Central, #01-3186, Singapore 150002",
    "hours": "7am-11pm",
    "latitude": 1.2866292132996,
    "longitude": 103.80686187976
  },
  {
    "name": "FairPrice Hillion Mall",
    "address": "17 Petir Road, #B2-67, Hillion Mall, Singapore 678278",
    "hours": "24 Hours",
    "latitude": 1.37843100800213,
    "longitude": 103.762842789877
  },
  {
    "name": "FairPrice Bukit Panjang Plaza",
    "address": "1 Jelebu Road, #B1-01, Bukit Panjang Plaza, Singapore 677743",
    "hours": "8am-11pm",
    "latitude": 1.37992045176243,
    "longitude": 103.764357180314
  },
  {
    "name": "FairPrice Coronation Plaza",
    "address": "587 Bukit Timah Road, #01-01, Coronation Plaza, Singapore 269707",
    "hours": "8am-11pm",
    "latitude": 1.32383512178759,
    "longitude": 103.809999570047
  },
  {
    "name": "FairPrice Beauty World Centre",
    "address": "144 Upper Bukit Timah Road, #B1-01, Beauty World Centre, Singapore 588177",
    "hours": "8am-11pm",
    "latitude": 1.34241264188642,
    "longitude": 103.776539385406
  },
  {
    "name": "FairPrice Canberra Plaza",
    "address": "133 Canberra View, #B1-03/04, Canberra Plaza, Singapore 750133",
    "hours": "8am-11pm",
    "latitude": 1.44349544527985,
    "longitude": 103.830345369213
  },
  {
    "name": "FairPrice Canberra Road Blk 511",
    "address": "511 Canberra Road, #02-03, Singapore 750511",
    "hours": "7am-11pm",
    "latitude": 1.45384518789713,
    "longitude": 103.819543348113
  },
  {
    "name": "FairPrice Chinatown Point",
    "address": "133 New Bridge Road, #B1-01, Chinatown Point, Singapore 059413",
    "hours": "8am-11pm",
    "latitude": 1.28499882847401,
    "longitude": 103.844697081142
  },
  {
    "name": "FairPrice City Square Mall",
    "address": "180 Kitchener Road, #B1-09/10, Singapore 208539",
    "hours": "8am-11pm",
    "latitude": 1.31142103107683,
    "longitude": 103.856624019991
  },
  {
    "name": "FairPrice Marina Bay Sands",
    "address": "10 Bayfront Ave, #B2-01, The Shoppes at Marina Bay Sands, Singapore 018956",
    "hours": "10am-11pm",
    "latitude": 1.28239713771706,
    "longitude": 103.85840539166
  },
  {
    "name": "FairPrice Orchard Takashimaya",
    "address": "391 Orchard Road, #B4-01/02, Takashimaya Shopping Centre, Singapore 238872",
    "hours": "10am-9:30pm",
    "latitude": 1.30224168528687,
    "longitude": 103.835181912297
  },
  {
    "name": "FairPrice ION Orchard",
    "address": "2 Orchard Turn, #B4-01, ION Orchard, Singapore 238801",
    "hours": "10am-10pm",
    "latitude": 1.30397974144505,
    "longitude": 103.832032328465
  },
  {
    "name": "FairPrice Bendemeer Road",
    "address": "30 Bendemeer Road, #01-871, Singapore 330030",
    "hours": "8am-10pm",
    "latitude": 1.319303367127,
    "longitude": 103.86404981515
  },
  {
    "name": "FairPrice Changi Airport T2",
    "address": "65 Airport Boulevard, #B16-029, Basement Level South, Terminal 2, Changi Airport, Singapore 819643",
    "hours": "7am-11pm",
    "latitude": 1.35529943230217,
    "longitude": 103.989141952518
  },
  {
    "name": "FairPrice Changi Airport T3",
    "address": "65 Airport Boulevard, #B2-01, Terminal 3, Changi Airport, Singapore 819663",
    "hours": "24 Hours",
    "latitude": 1.35640628728788,
    "longitude": 103.986211815854
  },
  {
    "name": "FairPrice Changi City Point",
    "address": "5 Changi Business Park Central 1, #B1-01, Changi City Point, Singapore 486038",
    "hours": "8am-11pm",
    "latitude": 1.33408359331373,
    "longitude": 103.962946083391
  },
  {
    "name": "FairPrice Clementi Ave",
    "address": "451 Clementi Ave 3, #01-307, Singapore 120451",
    "hours": "24 Hours",
    "latitude": 1.31248109025097,
    "longitude": 103.765476495005
  },
  {
    "name": "FairPrice Clementi Blk 352",
    "address": "352 Clementi Ave 2, #01-141/143, Singapore 120352",
    "hours": "24 Hours",
    "latitude": 1.31427860227337,
    "longitude": 103.771350557894
  },
  {
    "name": "FairPrice Clementi Mall",
    "address": "3155 Commonwealth Ave W, #02-09/10, Singapore 129588",
    "hours": "24 Hours",
    "latitude": 1.31496652285558,
    "longitude": 103.764270467593
  },
  {
    "name": "FairPrice Dover",
    "address": "28 Dover Crescent, #01-83, Singapore 130028",
    "hours": "8am-11pm",
    "latitude": 1.3047635676742,
    "longitude": 103.781697199348
  },
  {
    "name": "FairPrice Geylang East",
    "address": "114 Aljunied Avenue 2, #01-75, Singapore 380114",
    "hours": "24 Hours",
    "latitude": 1.32172296225797,
    "longitude": 103.886811795181
  },
  {
    "name": "FairPrice Geylang Lorong 38",
    "address": "612/620 Geylang Lorong 38, Singapore 389551",
    "hours": "24 Hours",
    "latitude": 1.31415001272084,
    "longitude": 103.888544866086
  },
  {
    "name": "FairPrice Circuit Road",
    "address": "77 Circuit Road, #01-464/466, Singapore 370077",
    "hours": "8am-10pm",
    "latitude": 1.32855656206109,
    "longitude": 103.885349899665
  },
  {
    "name": "FairPrice Eunos Crescent",
    "address": "5 Eunos Crescent, #01-2619/21, Singapore 400005",
    "hours": "8am-10pm",
    "latitude": 1.32119096792976,
    "longitude": 103.903554516253
  },
  {
    "name": "FairPrice Buona Vista Community Centre",
    "address": "36 Holland Drive, #01-03/04/05, Singapore 270036",
    "hours": "24 Hours",
    "latitude": 1.30922984207133,
    "longitude": 103.792660857646
  },
  {
    "name": "FairPrice Ghim Moh Link",
    "address": "29A Ghim Moh Link, #01-01, Singapore 271029",
    "hours": "24 Hours",
    "latitude": 1.30849288050575,
    "longitude": 103.784598100953
  },
  {
    "name": "FairPrice Hougang Mall",
    "address": "90 Hougang Ave 10, #03-11, Hougang Mall, Singapore 538766",
    "hours": "10am-10pm",
    "latitude": 1.37253315637342,
    "longitude": 103.893883460466
  },
  {
    "name": "FairPrice Hougang Blk 682",
    "address": "682 Hougang Ave 4, #01-310, Singapore 530682",
    "hours": "24 Hours",
    "latitude": 1.37361830380888,
    "longitude": 103.885748856217
  },
  {
    "name": "FairPrice Hougang 1",
    "address": "105 Hougang Ave 1, #01-1277, Singapore 530105",
    "hours": "7am-11pm",
    "latitude": 1.35408273910145,
    "longitude": 103.890130407955
  },
  {
    "name": "FairPrice Hougang Green Shopping Mall",
    "address": "21 Hougang Street 51, #01-35, Hougang Green Shopping Mall, Singapore 538719",
    "hours": "8am-11pm",
    "latitude": 1.3792452907016,
    "longitude": 103.887832017102
  },
  {
    "name": "FairPrice Xtra Jurong Point",
    "address": "63 Jurong Central 3, #03-01, Jurong Point, Singapore 648331",
    "hours": "24 Hours",
    "latitude": 1.33931504032005,
    "longitude": 103.705350996191
  },
  {
    "name": "FairPrice JEM",
    "address": "50 Jurong Gateway Road, #B1-01, JEM, Singapore 608549",
    "hours": "8am-11pm",
    "latitude": 1.33332819303974,
    "longitude": 103.743359442234
  },
  {
    "name": "FairPrice Westgate",
    "address": "3 Gateway Drive, #B2-01, Westgate, Singapore 608532",
    "hours": "8am-11pm",
    "latitude": 1.33402529481694,
    "longitude": 103.742586014944
  },
  {
    "name": "FairPrice Jurong West Blk 504",
    "address": "504 Jurong West Street 51, #01-291, Singapore 640504",
    "hours": "7am-11pm",
    "latitude": 1.34982761313556,
    "longitude": 103.718843750842
  },
  {
    "name": "FairPrice Jurong West Blk 143",
    "address": "143 Jurong Gateway Road, #01-279, Singapore 600143",
    "hours": "24 Hours",
    "latitude": 1.33336902059033,
    "longitude": 103.744217597929
  },
  {
    "name": "FairPrice Gek Poh Shopping Centre",
    "address": "762 Jurong West Street 75, #01-265, Gek Poh Shopping Centre, Singapore 640762",
    "hours": "8am-11pm",
    "latitude": 1.34874357136408,
    "longitude": 103.697732091001
  },
  {
    "name": "FairPrice Kallang Wave Mall",
    "address": "1 Stadium Place, #B1-01, Kallang Wave Mall, Singapore 397628",
    "hours": "8am-11pm",
    "latitude": 1.30307515150401,
    "longitude": 103.873149707591
  },
  {
    "name": "FairPrice Bendemeer",
    "address": "30 Bendemeer Road, #01-871, Singapore 330030",
    "hours": "8am-10pm",
    "latitude": 1.319303367127,
    "longitude": 103.86404981515
  },
  {
    "name": "FairPrice Marine Parade",
    "address": "80 Marine Parade Road, #01-01, Parkway Parade, Singapore 449269",
    "hours": "8am-11pm",
    "latitude": 1.30091736056425,
    "longitude": 103.90533928065
  },
  {
    "name": "FairPrice Chai Chee",
    "address": "29B Chai Chee Ave, #01-62, Singapore 462029",
    "hours": "24 Hours",
    "latitude": 1.3241399156082,
    "longitude": 103.923969688386
  },
  {
    "name": "FairPrice Velocity @ Novena Square",
    "address": "238 Thomson Road, #B2-01, Velocity @ Novena Square, Singapore 307683",
    "hours": "8am-11pm",
    "latitude": 1.31996748439185,
    "longitude": 103.843850630993
  },
  {
    "name": "FairPrice United Square",
    "address": "101 Thomson Road, #B1-01, United Square, Singapore 307591",
    "hours": "8am-11pm",
    "latitude": 1.31742800767635,
    "longitude": 103.843670754851
  },
  {
    "name": "FairPrice Downtown East",
    "address": "1 Pasir Ris Close, #02-127, E!Hub Downtown East, Singapore 519599",
    "hours": "8am-11pm",
    "latitude": 1.3766980678365,
    "longitude": 103.95514122442
  },
  {
    "name": "FairPrice White Sands",
    "address": "1 Pasir Ris Central Street 3, #B1-01, White Sands, Singapore 518457",
    "hours": "8am-11pm",
    "latitude": 1.3724564071358,
    "longitude": 103.949763493981
  },
  {
    "name": "FairPrice Pasir Ris Blk 279",
    "address": "279 Pasir Ris Street 21, #01-111, Singapore 510279",
    "hours": "7am-11pm",
    "latitude": 1.364996254077,
    "longitude": 103.958510674424
  },
  {
    "name": "FairPrice Waterway Point",
    "address": "83 Punggol Central, #B1-01, Waterway Point, Singapore 828761",
    "hours": "8am-11pm",
    "latitude": 1.40640964880099,
    "longitude": 103.902130352627
  },
  {
    "name": "FairPrice Punggol Plaza",
    "address": "168 Punggol Field, #01-01, Punggol Plaza, Singapore 820168",
    "hours": "8am-11pm",
    "latitude": 1.39423719717117,
    "longitude": 103.913047323223
  },
  {
    "name": "FairPrice Punggol Blk 681A",
    "address": "681A Punggol Drive, #01-01, Singapore 821681",
    "hours": "7am-11pm",
    "latitude": null,
    "longitude": null
  },
  {
    "name": "FairPrice Queensway Shopping Centre",
    "address": "1 Queensway, #01-01, Queensway Shopping Centre, Singapore 149053",
    "hours": "8am-11pm",
    "latitude": 1.28759518939869,
    "longitude": 103.803397287789
  },
  {
    "name": "FairPrice Dawson Place",
    "address": "57 Dawson Road, #01-07, Dawson Place, Singapore 142057",
    "hours": "24 Hours",
    "latitude": 1.29270339855062,
    "longitude": 103.810958956467
  },
  {
    "name": "FairPrice Cambridge Blk 43",
    "address": "43 Cambridge Road, #01-15, Singapore 210043",
    "hours": "7am-11pm",
    "latitude": 1.31536302699791,
    "longitude": 103.849434501824
  },
  {
    "name": "FairPrice Sun Plaza",
    "address": "30 Sembawang Drive, #B1-01, Sun Plaza, Singapore 757713",
    "hours": "8am-11pm",
    "latitude": 1.44819666623789,
    "longitude": 103.819498634275
  },
  {
    "name": "FairPrice Sembawang Shopping Centre",
    "address": "604 Sembawang Road, #01-01, Sembawang Shopping Centre, Singapore 758459",
    "hours": "8am-11pm",
    "latitude": 1.44175296834191,
    "longitude": 103.82479165671
  },
  {
    "name": "FairPrice Compass One",
    "address": "1 Sengkang Square, #B1-01, Compass One, Singapore 545078",
    "hours": "8am-11pm",
    "latitude": 1.39205314156706,
    "longitude": 103.89507054384
  },
  {
    "name": "FairPrice Compassvale Link",
    "address": "277C Compassvale Link, #01-13, Singapore 544277",
    "hours": "24 Hours",
    "latitude": 1.38183345894478,
    "longitude": 103.893909396228
  },
  {
    "name": "FairPrice Sengkang Grand Mall",
    "address": "70 Sengkang East Way, #01-01, Sengkang Grand Mall, Singapore 544792",
    "hours": "8am-11pm",
    "latitude": 1.38298163203344,
    "longitude": 103.892721007746
  },
  {
    "name": "FairPrice Rivervale Mall",
    "address": "11 Rivervale Crescent, #B1-01, Rivervale Mall, Singapore 545082",
    "hours": "8am-11pm",
    "latitude": 1.39250410994833,
    "longitude": 103.904483668323
  },
  {
    "name": "FairPrice NEX",
    "address": "23 Serangoon Central, #B2-01, NEX, Singapore 556083",
    "hours": "8am-11pm",
    "latitude": 1.35067551435975,
    "longitude": 103.871861623874
  },
  {
    "name": "FairPrice myVillage at Serangoon Garden",
    "address": "1 Maju Avenue, #01-01, myVillage at Serangoon Garden, Singapore 556679",
    "hours": "8am-11pm",
    "latitude": 1.36511490572797,
    "longitude": 103.865159501442
  },
  {
    "name": "FairPrice Serangoon Blk 261",
    "address": "261 Serangoon Central Drive, #01-57, Singapore 550261",
    "hours": "7am-11pm",
    "latitude": 1.35405255194874,
    "longitude": 103.872524450991
  },
  {
    "name": "FairPrice Eastpoint",
    "address": "3 Simei Street 6, #05-01, Eastpoint, Singapore 528833",
    "hours": "24 Hours",
    "latitude": 1.34270592355576,
    "longitude": 103.953024618234
  },
  {
    "name": "FairPrice Simei Blk 203",
    "address": "203 Simei Street 1, #01-09, Singapore 520203",
    "hours": "7am-11pm",
    "latitude": 1.35221380431142,
    "longitude": 103.952454044118
  },
  {
    "name": "FairPrice Tampines Mall",
    "address": "4 Tampines Central 5, #B1-01, Tampines Mall, Singapore 529510",
    "hours": "10am-10pm",
    "latitude": 1.35250468330971,
    "longitude": 103.944682574769
  },
  {
    "name": "FairPrice Tampines 1",
    "address": "10 Tampines Central 1, #04-01, Tampines 1, Singapore 529536",
    "hours": "8am-11pm",
    "latitude": 1.35425637962115,
    "longitude": 103.945071748027
  },
  {
    "name": "FairPrice Century Square",
    "address": "2 Tampines Central 5, #B1-01, Century Square, Singapore 529509",
    "hours": "8am-11pm",
    "latitude": 1.35236829566862,
    "longitude": 103.943812302253
  },
  {
    "name": "FairPrice Tampines Blk 201",
    "address": "201 Tampines Street 21, #01-1139, Singapore 520201",
    "hours": "7am-11pm",
    "latitude": 1.35289506312913,
    "longitude": 103.953585683185
  },
  {
    "name": "FairPrice Tampines Blk 827",
    "address": "827 Tampines Street 81, #01-148, Singapore 520827",
    "hours": "24 Hours",
    "latitude": 1.34972149544046,
    "longitude": 103.933719246104
  },
  {
    "name": "FairPrice HDB Hub",
    "address": "480 Lorong 6 Toa Payoh, #B1-01, HDB Hub, Singapore 310480",
    "hours": "8am-11pm",
    "latitude": 1.33202548854255,
    "longitude": 103.848335264381
  },
  {
    "name": "FairPrice Toa Payoh Blk 185",
    "address": "185 Toa Payoh Central, #01-334, Singapore 310185",
    "hours": "7am-11pm",
    "latitude": 1.33272795858038,
    "longitude": 103.849994231509
  },
  {
    "name": "FairPrice Toa Payoh Blk 79",
    "address": "79 Toa Payoh Central, #01-01, Singapore 310079",
    "hours": "24 Hours",
    "latitude": 1.33472713626235,
    "longitude": 103.849822984337
  },
  {
    "name": "FairPrice Woodlands MRT",
    "address": "30 Woodlands Ave 2, #01-05, Woodlands MRT Station, Singapore 738343",
    "hours": "6am-12am",
    "latitude": 1.43681436169078,
    "longitude": 103.785325969402
  },
  {
    "name": "FairPrice Causeway Point",
    "address": "1 Woodlands Square, #B1-01, Causeway Point, Singapore 738099",
    "hours": "8am-11pm",
    "latitude": 1.43600784474269,
    "longitude": 103.78568873405
  },
  {
    "name": "FairPrice Woodlands Blk 888",
    "address": "888 Woodlands Drive 50, #01-745, Singapore 730888",
    "hours": "7am-11pm",
    "latitude": 1.43712301500434,
    "longitude": 103.795314383823
  },
  {
    "name": "FairPrice Admiralty Place",
    "address": "678 Woodlands Ave 6, #01-01, Admiralty Place, Singapore 730678",
    "hours": "8am-11pm",
    "latitude": 1.43998366608733,
    "longitude": 103.801293104268
  },
  {
    "name": "FairPrice Yishun 10",
    "address": "51 Yishun Central 1, #02-32, Yishun 10, Singapore 768794",
    "hours": "24 Hours",
    "latitude": 1.42991554202388,
    "longitude": 103.836473396124
  },
  {
    "name": "FairPrice Northpoint City",
    "address": "930 Yishun Ave 2, #B1-01, Northpoint City, Singapore 769098",
    "hours": "8am-11pm",
    "latitude": 1.42969848626288,
    "longitude": 103.835776491468
  },
  {
    "name": "FairPrice Yishun Blk 925",
    "address": "925 Yishun Central 1, #01-215, Singapore 760925",
    "hours": "7am-11pm",
    "latitude": 1.42750549654333,
    "longitude": 103.837125284539
  },
  {
    "name": "FairPrice Yishun Blk 846",
    "address": "846 Yishun Ring Road, #01-3651, Singapore 760846",
    "hours": "24 Hours",
    "latitude": 1.41678634718118,
    "longitude": 103.834641579241
  },
  {
    "name": "FairPrice Finest Scotts Square",
    "address": "6 Scotts Road, #B1-01, Scotts Square, Singapore 228209",
    "hours": "8am-11pm",
    "storeType": "FairPrice Finest",
    "latitude": 1.30579942993543,
    "longitude": 103.833074706219
  },
  {
    "name": "FairPrice Finest Great World City",
    "address": "1 Kim Seng Promenade, #B1-01, Great World City, Singapore 237994",
    "hours": "8am-11pm",
    "storeType": "FairPrice Finest",
    "latitude": 1.29380235105066,
    "longitude": 103.831757911057
  },
  {
    "name": "FairPrice Finest Market Street",
    "address": "1 Raffles Place, #B1-01, One Raffles Place, Singapore 048616",
    "hours": "7am-9pm",
    "storeType": "FairPrice Finest",
    "latitude": 1.28434954622306,
    "longitude": 103.851072545834
  },
  {
    "name": "FairPrice Finest Raffles City",
    "address": "252 North Bridge Road, #B1-01, Raffles City Shopping Centre, Singapore 179103",
    "hours": "8am-11pm",
    "storeType": "FairPrice Finest",
    "latitude": 1.29389357863312,
    "longitude": 103.853119904656
  },
  {
    "name": "FairPrice Finest Parkway Parade",
    "address": "80 Marine Parade Road, #B1-01, Parkway Parade, Singapore 449269",
    "hours": "8am-11pm",
    "storeType": "FairPrice Finest",
    "latitude": 1.30091736056425,
    "longitude": 103.90533928065
  },
  {
    "name": "FairPrice Finest Tanglin Mall",
    "address": "163 Tanglin Road, #B1-01, Tanglin Mall, Singapore 247933",
    "hours": "8am-11pm",
    "storeType": "FairPrice Finest",
    "latitude": 1.30484344196915,
    "longitude": 103.823852794772
  },
  {
    "name": "FairPrice Finest Forum The Shopping Mall",
    "address": "583 Orchard Road, #B1-01, Forum The Shopping Mall, Singapore 238884",
    "hours": "8am-11pm",
    "storeType": "FairPrice Finest",
    "latitude": 1.30619579912712,
    "longitude": 103.828509016327
  },
  {
    "name": "FairPrice Xtra Harbourfront Centre",
    "address": "1 Maritime Square, #02-01, HarbourFront Centre, Singapore 099253",
    "hours": "24 Hours",
    "storeType": "FairPrice Xtra",
    "latitude": 1.26401293230767,
    "longitude": 103.82005101011
  },
  {
    "name": "FairPrice Xtra Nex",
    "address": "23 Serangoon Central, #B2-01, NEX, Singapore 556083",
    "hours": "8am-11pm",
    "storeType": "FairPrice Xtra",
    "latitude": 1.35067551435975,
    "longitude": 103.871861623874
  },
  {
    "name": "FairPrice Xtra Ang Mo Kio",
    "address": "53 Ang Mo Kio Ave 3, #B1-01, AMK Hub, Singapore 569933",
    "hours": "8am-11pm",
    "storeType": "FairPrice Xtra",
    "latitude": 1.36923561405404,
    "longitude": 103.848693181185
  },
  {
    "name": "FairPrice Ang Mo Kio Avenue 4",
    "address": "630 Ang Mo Kio Avenue 4, #01-908, Singapore 560630",
    "hours": "7am-11pm",
    "latitude": 1.38054138917049,
    "longitude": 103.841068277331
  },
  {
    "name": "FairPrice Ang Mo Kio Avenue 5",
    "address": "725 Ang Mo Kio Avenue 5, #01-2807, Singapore 560725",
    "hours": "7am-11pm",
    "latitude": 1.37279081671095,
    "longitude": 103.846911241497
  },
  {
    "name": "FairPrice Bedok North Street 1",
    "address": "89 Bedok North Street 1, #01-111, Singapore 460089",
    "hours": "7am-11pm",
    "latitude": 1.33233468349262,
    "longitude": 103.938051284737
  },
  {
    "name": "FairPrice Bedok North Street 3",
    "address": "539 Bedok North Street 3, #01-69, Singapore 460539",
    "hours": "7am-11pm",
    "latitude": 1.33131386579703,
    "longitude": 103.925307290709
  },
  {
    "name": "FairPrice Bedok Reservoir Crescent",
    "address": "632 Bedok Reservoir Crescent, #01-882, Singapore 470632",
    "hours": "7am-11pm",
    "latitude": 1.33205094618817,
    "longitude": 103.914145075793
  },
  {
    "name": "FairPrice Bishan Street 22",
    "address": "283 Bishan Street 22, #01-207, Singapore 570283",
    "hours": "7am-11pm",
    "latitude": 1.3589190712993,
    "longitude": 103.844748631736
  },
  {
    "name": "FairPrice Boon Lay Avenue",
    "address": "221 Boon Lay Place, #01-200, Singapore 640221",
    "hours": "7am-11pm",
    "latitude": 1.34633552457315,
    "longitude": 103.712430373455
  },
  {
    "name": "FairPrice Boon Lay Drive",
    "address": "192 Boon Lay Drive, #01-263, Singapore 640192",
    "hours": "7am-11pm",
    "latitude": 1.34349197849167,
    "longitude": 103.712514599563
  },
  {
    "name": "FairPrice Bukit Batok Street 21",
    "address": "21 Bukit Batok Street 21, #01-218, Singapore 650021",
    "hours": "7am-11pm",
    "latitude": 1.34586253909028,
    "longitude": 103.747905760698
  },
  {
    "name": "FairPrice Bukit Batok Street 31",
    "address": "371 Bukit Batok Street 31, #01-326, Singapore 650371",
    "hours": "7am-11pm",
    "latitude": 1.35925940866068,
    "longitude": 103.75069463109
  },
  {
    "name": "FairPrice Bukit Batok West Avenue 6",
    "address": "440 Bukit Batok West Avenue 6, #01-01, Singapore 650440",
    "hours": "7am-11pm",
    "latitude": 1.35572308109486,
    "longitude": 103.739303105372
  },
  {
    "name": "FairPrice Bukit Merah Lane 1",
    "address": "78 Bukit Merah Lane 1, #01-01, Singapore 150078",
    "hours": "7am-11pm",
    "latitude": 1.28843088346846,
    "longitude": 103.818486786844
  },
  {
    "name": "FairPrice Bukit Panjang Ring Road",
    "address": "259 Bukit Panjang Ring Road, #01-01, Singapore 670259",
    "hours": "7am-11pm",
    "latitude": 1.37750727624619,
    "longitude": 103.77360557644
  },
  {
    "name": "FairPrice Bukit Panjang Road",
    "address": "27 Bukit Panjang Road, #01-01, Singapore 679910",
    "hours": "7am-11pm",
    "latitude": 1.3816381331934,
    "longitude": 103.764676250968
  },
  {
    "name": "FairPrice Bukit Timah Plaza",
    "address": "1 Jalan Anak Bukit, #B1-01, Bukit Timah Plaza, Singapore 588996",
    "hours": "7am-11pm",
    "latitude": 1.33875930729064,
    "longitude": 103.778600077834
  },
  {
    "name": "FairPrice Canberra Crescent",
    "address": "105 Canberra Crescent, #01-01, Singapore 750105",
    "hours": "7am-11pm",
    "latitude": 1.44885564679911,
    "longitude": 103.832409172149
  },
  {
    "name": "FairPrice Canberra Road",
    "address": "511 Canberra Road, #01-01, Singapore 750511",
    "hours": "7am-11pm",
    "latitude": 1.45384518789713,
    "longitude": 103.819543348113
  },
  {
    "name": "FairPrice Choa Chu Kang Avenue 4",
    "address": "678A Choa Chu Kang Avenue 4, #01-01, Singapore 681678",
    "hours": "7am-11pm",
    "latitude": 1.40155939783169,
    "longitude": 103.744743200908
  },
  {
    "name": "FairPrice Choa Chu Kang Crescent",
    "address": "818 Choa Chu Kang Crescent, #01-01, Singapore 681818",
    "hours": "7am-11pm",
    "latitude": 1.37762936263123,
    "longitude": 103.748488766609
  },
  {
    "name": "FairPrice Choa Chu Kang Street 52",
    "address": "504 Choa Chu Kang Street 52, #01-01, Singapore 680504",
    "hours": "7am-11pm",
    "latitude": 1.3891663147976,
    "longitude": 103.742676142012
  },
  {
    "name": "FairPrice Clementi Avenue 2",
    "address": "354 Clementi Avenue 2, #01-253, Singapore 120354",
    "hours": "7am-11pm",
    "latitude": 1.31351386405455,
    "longitude": 103.770861088889
  },
  {
    "name": "FairPrice Clementi Street 13",
    "address": "608 Clementi Street 13, #01-01, Singapore 120608",
    "hours": "7am-11pm",
    "latitude": 1.30434110257324,
    "longitude": 103.766529796163
  },
  {
    "name": "FairPrice Commonwealth Crescent",
    "address": "38 Commonwealth Crescent, #01-01, Singapore 140038",
    "hours": "7am-11pm",
    "latitude": 1.29750810337269,
    "longitude": 103.798722843014
  },
  {
    "name": "FairPrice Commonwealth Drive",
    "address": "703 Commonwealth Drive, #01-01, Singapore 149598",
    "hours": "7am-11pm",
    "latitude": 1.30305551306548,
    "longitude": 103.796483196648
  },
  {
    "name": "FairPrice Compassvale Drive",
    "address": "277C Compassvale Drive, #01-01, Singapore 543277",
    "hours": "7am-11pm",
    "latitude": 1.38233698966981,
    "longitude": 103.893607838756
  },
  {
    "name": "FairPrice Edgefield Plains",
    "address": "676A Edgefield Plains, #01-01, Singapore 821676",
    "hours": "7am-11pm",
    "latitude": 1.40482709089795,
    "longitude": 103.909870662158
  },
  {
    "name": "FairPrice Geylang East Central",
    "address": "101 Geylang East Central, #01-01, Singapore 389701",
    "hours": "7am-11pm",
    "latitude": 1.31893906555123,
    "longitude": 103.886798789505
  },
  {
    "name": "FairPrice Geylang Road",
    "address": "612/620 Geylang Road, Singapore 389551",
    "hours": "7am-11pm",
    "latitude": 1.31415001272084,
    "longitude": 103.888544866086
  },
  {
    "name": "FairPrice Harbourfront Centre",
    "address": "1 Maritime Square, #02-01, HarbourFront Centre, Singapore 099253",
    "hours": "7am-11pm",
    "latitude": 1.26401293230767,
    "longitude": 103.82005101011
  },
  {
    "name": "FairPrice Hougang Avenue 8",
    "address": "682 Hougang Avenue 8, #01-01, Singapore 530682",
    "hours": "7am-11pm",
    "latitude": 1.37361830380888,
    "longitude": 103.885748856217
  },
  {
    "name": "FairPrice Hougang Street 21",
    "address": "209 Hougang Street 21, #01-01, Singapore 530209",
    "hours": "7am-11pm",
    "latitude": 1.35908384091048,
    "longitude": 103.886055368064
  },
  {
    "name": "FairPrice Jalan Bukit Merah",
    "address": "161 Jalan Bukit Merah, #01-01, Singapore 150161",
    "hours": "7am-11pm",
    "latitude": 1.28391229397444,
    "longitude": 103.816006111441
  },
  {
    "name": "FairPrice Jalan Jurong Kechil",
    "address": "2 Jalan Jurong Kechil, #01-01, Singapore 598604",
    "hours": "7am-11pm",
    "latitude": 1.34087370084633,
    "longitude": 103.772459969492
  },
  {
    "name": "FairPrice Jurong East Street 21",
    "address": "235 Jurong East Street 21, #01-01, Singapore 600235",
    "hours": "7am-11pm",
    "latitude": 1.33997597903355,
    "longitude": 103.742159955768
  },
  {
    "name": "FairPrice Jurong West Street 42",
    "address": "504 Jurong West Street 42, #01-01, Singapore 640504",
    "hours": "7am-11pm",
    "latitude": 1.34982761313556,
    "longitude": 103.718843750842
  },
  {
    "name": "FairPrice Jurong West Street 52",
    "address": "505 Jurong West Street 52, #01-01, Singapore 640505",
    "hours": "7am-11pm",
    "latitude": 1.34965729130746,
    "longitude": 103.718443677825
  },
  {
    "name": "FairPrice Jurong West Street 61",
    "address": "643 Jurong West Street 61, #01-01, Singapore 640643",
    "hours": "7am-11pm",
    "latitude": 1.33925229393405,
    "longitude": 103.695690186551
  },
  {
    "name": "FairPrice Jurong West Street 65",
    "address": "743 Jurong West Street 65, #01-01, Singapore 640743",
    "hours": "7am-11pm",
    "latitude": 1.34729336857901,
    "longitude": 103.699193660942
  },
  {
    "name": "FairPrice Jurong West Street 71",
    "address": "762 Jurong West Street 71, #01-01, Singapore 640762",
    "hours": "7am-11pm",
    "latitude": 1.34874357136408,
    "longitude": 103.697732091001
  },
  {
    "name": "FairPrice Jurong West Street 91",
    "address": "762 Jurong West Street 91, #01-01, Singapore 640762",
    "hours": "7am-11pm",
    "latitude": 1.34874357136408,
    "longitude": 103.697732091001
  },
  {
    "name": "FairPrice Marine Parade Central",
    "address": "80 Marine Parade Central, #01-01, Singapore 440080",
    "hours": "7am-11pm",
    "latitude": 1.30248202632175,
    "longitude": 103.9077387936
  },
  {
    "name": "FairPrice Marsiling Drive",
    "address": "71 Marsiling Drive, #01-01, Singapore 730071",
    "hours": "7am-11pm",
    "latitude": 1.44235164045446,
    "longitude": 103.774943528093
  },
  {
    "name": "FairPrice Marsiling Lane",
    "address": "21 Marsiling Lane, #01-01, Singapore 730021",
    "hours": "7am-11pm",
    "latitude": 1.44383165244262,
    "longitude": 103.777210383669
  },
  {
    "name": "FairPrice Marsiling Rise",
    "address": "11 Marsiling Rise, #01-01, Singapore 730011",
    "hours": "7am-11pm",
    "latitude": 1.44039399880253,
    "longitude": 103.777942285238
  },
  {
    "name": "FairPrice North Bridge Road",
    "address": "1 North Bridge Road, #01-01, Singapore 179094",
    "hours": "7am-11pm",
    "latitude": 1.28999676915058,
    "longitude": 103.849282222609
  },
  {
    "name": "FairPrice Orchard Road",
    "address": "391 Orchard Road, #B4-01, Takashimaya Shopping Centre, Singapore 238872",
    "hours": "7am-11pm",
    "latitude": 1.30224168528687,
    "longitude": 103.835181912297
  },
  {
    "name": "FairPrice Pasir Ris Drive 6",
    "address": "443 Pasir Ris Drive 6, #01-01, Singapore 510443",
    "hours": "7am-11pm",
    "latitude": 1.36940860628198,
    "longitude": 103.957395750219
  },
  {
    "name": "FairPrice Pasir Ris Street 11",
    "address": "110 Pasir Ris Street 11, #01-01, Singapore 510110",
    "hours": "7am-11pm",
    "latitude": 1.36877568746945,
    "longitude": 103.956300375904
  },
  {
    "name": "FairPrice Punggol Drive",
    "address": "681A Punggol Drive, #01-01, Singapore 821681",
    "hours": "7am-11pm",
    "latitude": null,
    "longitude": null
  },
  {
    "name": "FairPrice Punggol Field",
    "address": "168 Punggol Field, #01-01, Singapore 820168",
    "hours": "7am-11pm",
    "latitude": 1.39423719717117,
    "longitude": 103.913047323223
  },
  {
    "name": "FairPrice Queensway",
    "address": "1 Queensway, #01-01, Singapore 149053",
    "hours": "7am-11pm",
    "latitude": 1.28759518939869,
    "longitude": 103.803397287789
  },
  {
    "name": "FairPrice Sembawang Crescent",
    "address": "354 Sembawang Crescent, #01-01, Singapore 750354",
    "hours": "7am-11pm",
    "latitude": 1.45006052122463,
    "longitude": 103.818406140896
  },
  {
    "name": "FairPrice Sembawang Drive",
    "address": "30 Sembawang Drive, #01-01, Singapore 757713",
    "hours": "7am-11pm",
    "latitude": 1.44819666623789,
    "longitude": 103.819498634275
  },
  {
    "name": "FairPrice Sengkang East Way",
    "address": "70 Sengkang East Way, #01-01, Singapore 544792",
    "hours": "7am-11pm",
    "latitude": 1.38664846860625,
    "longitude": 103.892775612171
  },
  {
    "name": "FairPrice Sengkang Square",
    "address": "1 Sengkang Square, #01-01, Singapore 545078",
    "hours": "7am-11pm",
    "latitude": 1.39205314156706,
    "longitude": 103.89507054384
  },
  {
    "name": "FairPrice Serangoon Avenue 2",
    "address": "261 Serangoon Avenue 2, #01-01, Singapore 550261",
    "hours": "7am-11pm",
    "latitude": 1.35405255194874,
    "longitude": 103.872524450991
  },
  {
    "name": "FairPrice Serangoon Central",
    "address": "23 Serangoon Central, #01-01, Singapore 556083",
    "hours": "7am-11pm",
    "latitude": 1.35067551435975,
    "longitude": 103.871861623874
  },
  {
    "name": "FairPrice Serangoon Garden Way",
    "address": "1 Maju Avenue, #01-01, Singapore 556679",
    "hours": "7am-11pm",
    "latitude": 1.36511490572797,
    "longitude": 103.865159501442
  },
  {
    "name": "FairPrice Simei Street 1",
    "address": "203 Simei Street 1, #01-01, Singapore 520203",
    "hours": "7am-11pm",
    "latitude": 1.35221380431142,
    "longitude": 103.952454044118
  },
  {
    "name": "FairPrice Tampines Avenue 4",
    "address": "201 Tampines Avenue 4, #01-01, Singapore 520201",
    "hours": "7am-11pm",
    "latitude": 1.35289506312913,
    "longitude": 103.953585683185
  },
  {
    "name": "FairPrice Tampines Street 11",
    "address": "110 Tampines Street 11, #01-01, Singapore 521110",
    "hours": "7am-11pm",
    "latitude": 1.34694662248116,
    "longitude": 103.949306963291
  },
  {
    "name": "FairPrice Tampines Street 21",
    "address": "201 Tampines Street 21, #01-01, Singapore 520201",
    "hours": "7am-11pm",
    "latitude": 1.35289506312913,
    "longitude": 103.953585683185
  },
  {
    "name": "FairPrice Tampines Street 81",
    "address": "827 Tampines Street 81, #01-01, Singapore 520827",
    "hours": "7am-11pm",
    "latitude": 1.34972149544046,
    "longitude": 103.933719246104
  },
  {
    "name": "FairPrice Tanjong Pagar",
    "address": "1 Tanjong Pagar Plaza, #01-01, Singapore 082001",
    "hours": "7am-11pm",
    "latitude": 1.2755961982077,
    "longitude": 103.842393171342
  },
  {
    "name": "FairPrice Teck Ghee",
    "address": "409 Ang Mo Kio Avenue 10, #01-01, Singapore 560409",
    "hours": "7am-11pm",
    "latitude": 1.36265410749321,
    "longitude": 103.855288297631
  },
  {
    "name": "FairPrice Teck Whye",
    "address": "8 Teck Whye Lane, #01-01, Singapore 680008",
    "hours": "7am-11pm",
    "latitude": 1.38066226970719,
    "longitude": 103.754670556697
  },
  {
    "name": "FairPrice Tiong Bahru",
    "address": "302 Tiong Bahru Road, #B1-01/02, Tiong Bahru Plaza, Singapore 168732",
    "hours": "7am-11pm",
    "latitude": 1.28646345355064,
    "longitude": 103.826935079694
  },
  {
    "name": "FairPrice Toa Payoh",
    "address": "190 Toa Payoh Central, #01-01, Singapore 310190",
    "hours": "7am-11pm",
    "latitude": 1.33297850244995,
    "longitude": 103.848832062985
  },
  {
    "name": "FairPrice Toa Payoh Lorong 7",
    "address": "22 Toa Payoh Lorong 7, #01-01, Singapore 310022",
    "hours": "7am-11pm",
    "latitude": 1.33538261333779,
    "longitude": 103.857003709119
  },
  {
    "name": "FairPrice Toh Guan",
    "address": "267 Toh Guan Road, #01-01, Singapore 600267",
    "hours": "7am-11pm",
    "latitude": 1.34111736866105,
    "longitude": 103.744794661314
  },
  {
    "name": "FairPrice Upper Boon Keng",
    "address": "10 Upper Boon Keng Road, #01-01, Singapore 380010",
    "hours": "7am-11pm",
    "latitude": 1.31426821795111,
    "longitude": 103.871811927933
  },
  {
    "name": "FairPrice Upper Serangoon",
    "address": "476 Upper Serangoon Road, #01-01, Singapore 347476",
    "hours": "7am-11pm",
    "latitude": 1.32975985792264,
    "longitude": 103.870024288788
  },
  {
    "name": "FairPrice VivoCity",
    "address": "1 Harbourfront Walk, #B2-23, VivoCity, Singapore 098585",
    "hours": "7am-11pm",
    "latitude": 1.26431382492761,
    "longitude": 103.82207343835
  },
  {
    "name": "FairPrice West Coast",
    "address": "502 West Coast Drive, #01-41, Singapore 120502",
    "hours": "7am-11pm",
    "latitude": 1.31190695723944,
    "longitude": 103.759128018939
  },
  {
    "name": "FairPrice Woodlands Avenue 1",
    "address": "570B Woodlands Avenue 1, #01-06, Singapore 732570",
    "hours": "7am-11pm",
    "latitude": 1.43106395485681,
    "longitude": 103.790454078756
  },
  {
    "name": "FairPrice Woodlands Civic Centre",
    "address": "900 South Woodlands Drive, #B1-01, Singapore 730900",
    "hours": "7am-11pm",
    "latitude": 1.43505698925938,
    "longitude": 103.787004308703
  },
  {
    "name": "FairPrice Yew Tee Point",
    "address": "21 Choa Chu Kang North 6, #B1-01, Yew Tee Point, Singapore 689578",
    "hours": "7am-11pm",
    "latitude": 1.39696992267974,
    "longitude": 103.746443198224
  },
  {
    "name": "FairPrice Yishun MRT",
    "address": "301 Yishun Avenue 2, #01-02, Yishun MRT Station, Singapore 769093",
    "hours": "7am-11pm",
    "latitude": 1.42944308477331,
    "longitude": 103.835005047246
  },
  {
    "name": "FairPrice Yung Kuang",
    "address": "63/66 Yung Kuang Road, #01-119 & #02-119, Singapore 610063",
    "hours": "7am-11pm",
    "latitude": 1.33221936370928,
    "longitude": 103.722686866956
  }
]